city,latitude,longitude
Seattle,47.6131746,-122.4821479
New York City,40.6976701,-74.2598667
Miami,25.7825453,-80.2994988
Los Angeles,34.0207305,-118.6919213
Houston,29.8174782,-95.681482
Chicago,41.8339037,-87.8720481
Las Vegas,36.1251958,-115.3150848
Minneapolis,44.970797,-93.3315184
San Francisco,37.757815,-122.5076401